[
  {
    "code": "DEL",
    "name": "Indira Gandhi International Airport",
    "city": "Delhi",
    "country": "India",
    "latitude": 28.5562,
    "longitude": 77.1000
  },
  {
    "code": "BOM",
    "name": "Chhatrapati Shivaji Maharaj International Airport",
    "city": "Mumbai",
    "country": "India",
    "latitude": 19.0896,
    "longitude": 72.8656
  },
  {
    "code": "BLR",
    "name": "Kempegowda International Airport",
    "city": "Bangalore",
    "country": "India",
    "latitude": 13.1986,
    "longitude": 77.7064
  },
  {
    "code": "CCU",
    "name": "Netaji Subhas Chandra Bose International Airport",
    "city": "Kolkata",
    "country": "India",
    "latitude": 22.6546,
    "longitude": 88.4467
  },
  {
    "code": "MAA",
    "name": "Chennai International Airport",
    "city": "Chennai",
    "country": "India",
    "latitude": 12.9941,
    "longitude": 80.1709
  },
  {
    "code": "HYD",
    "name": "Rajiv Gandhi International Airport",
    "city": "Hyderabad",
    "country": "India",
    "latitude": 17.2403,
    "longitude": 78.4294
  },
  {
    "code": "BKK",
    "name": "Suvarnabhumi International Airport",
    "city": "Bangkok",
    "country": "Thailand",
    "latitude": 13.6900,
    "longitude": 100.7501
  },
  {
    "code": "CNX",
    "name": "Chiang Mai International Airport",
    "city": "Chiang Mai",
    "country": "Thailand",
    "latitude": 18.7668,
    "longitude": 98.9626
  },
  {
    "code": "HKT",
    "name": "Phuket International Airport",
    "city": "Phuket",
    "country": "Thailand",
    "latitude": 8.1132,
    "longitude": 98.3169
  },
  {
    "code": "JFK",
    "name": "John F. Kennedy International Airport",
    "city": "New York",
    "country": "USA",
    "latitude": 40.6413,
    "longitude": -73.7781
  },
  {
    "code": "LAX",
    "name": "Los Angeles International Airport",
    "city": "Los Angeles",
    "country": "USA",
    "latitude": 33.9416,
    "longitude": -118.4085
  },
  {
    "code": "ORD",
    "name": "O'Hare International Airport",
    "city": "Chicago",
    "country": "USA",
    "latitude": 41.9786,
    "longitude": -87.9048
  },
  {
    "code": "SFO",
    "name": "San Francisco International Airport",
    "city": "San Francisco",
    "country": "USA",
    "latitude": 37.6189,
    "longitude": -122.3750
  },
  {
    "code": "ATL",
    "name": "Hartsfield–Jackson Atlanta International Airport",
    "city": "Atlanta",
    "country": "USA",
    "latitude": 33.6407,
    "longitude": -84.4277
  },
  {
    "code": "DEN",
    "name": "Denver International Airport",
    "city": "Denver",
    "country": "USA",
    "latitude": 39.8561,
    "longitude": -104.6737
  },
  {
    "code": "SEA",
    "name": "Seattle–Tacoma International Airport",
    "city": "Seattle",
    "country": "USA",
    "latitude": 47.4502,
    "longitude": -122.3088
  },
  {
    "code": "LAS",
    "name": "Harry Reid International Airport",
    "city": "Las Vegas",
    "country": "USA",
    "latitude": 36.0840,
    "longitude": -115.1537
  },
  {
    "code": "DFW",
    "name": "Dallas/Fort Worth International Airport",
    "city": "Dallas",
    "country": "USA",
    "latitude": 32.8975,
    "longitude": -97.0404
  },
  {
    "code": "MCO",
    "name": "Orlando International Airport",
    "city": "Orlando",
    "country": "USA",
    "latitude": 28.4312,
    "longitude": -81.3081
  },
  {
    "code": "PHX",
    "name": "Phoenix Sky Harbor International Airport",
    "city": "Phoenix",
    "country": "USA",
    "latitude": 33.4353,
    "longitude": -112.0058
  },
  {
    "code": "LHR",
    "name": "London Heathrow Airport",
    "city": "London",
    "country": "United Kingdom",
    "latitude": 51.4700,
    "longitude": -0.4543
  },
  {
    "code": "CDG",
    "name": "Charles de Gaulle Airport",
    "city": "Paris",
    "country": "France",
    "latitude": 49.0097,
    "longitude": 2.5479
  },
  {
    "code": "FRA",
    "name": "Frankfurt Airport",
    "city": "Frankfurt",
    "country": "Germany",
    "latitude": 50.0379,
    "longitude": 8.5622
  },
  {
    "code": "AMS",
    "name": "Amsterdam Airport Schiphol",
    "city": "Amsterdam",
    "country": "Netherlands",
    "latitude": 52.3105,
    "longitude": 4.7683
  },
  {
    "code": "MAD",
    "name": "Adolfo Suárez Madrid–Barajas Airport",
    "city": "Madrid",
    "country": "Spain",
    "latitude": 40.4983,
    "longitude": -3.5676
  },
  {
    "code": "FCO",
    "name": "Leonardo da Vinci International Airport",
    "city": "Rome",
    "country": "Italy",
    "latitude": 41.8003,
    "longitude": 12.2389
  },
  {
    "code": "NRT",
    "name": "Narita International Airport",
    "city": "Tokyo",
    "country": "Japan",
    "latitude": 35.7720,
    "longitude": 140.3928
  },
  {
    "code": "ICN",
    "name": "Incheon International Airport",
    "city": "Seoul",
    "country": "South Korea",
    "latitude": 37.4602,
    "longitude": 126.4407
  },
  {
    "code": "PEK",
    "name": "Beijing Capital International Airport",
    "city": "Beijing",
    "country": "China",
    "latitude": 40.0799,
    "longitude": 116.6031
  },
  {
    "code": "PVG",
    "name": "Shanghai Pudong International Airport",
    "city": "Shanghai",
    "country": "China",
    "latitude": 31.1434,
    "longitude": 121.8052
  },
  {
    "code": "SIN",
    "name": "Singapore Changi Airport",
    "city": "Singapore",
    "country": "Singapore",
    "latitude": 1.3644,
    "longitude": 103.9915
  },
  {
    "code": "KUL",
    "name": "Kuala Lumpur International Airport",
    "city": "Kuala Lumpur",
    "country": "Malaysia",
    "latitude": 2.7456,
    "longitude": 101.7099
  },
  {
    "code": "CGK",
    "name": "Soekarno–Hatta International Airport",
    "city": "Jakarta",
    "country": "Indonesia",
    "latitude": -6.1256,
    "longitude": 106.6558
  },
  {
    "code": "MNL",
    "name": "Ninoy Aquino International Airport",
    "city": "Manila",
    "country": "Philippines",
    "latitude": 14.5086,
    "longitude": 121.0196
  },
  {
    "code": "DXB",
    "name": "Dubai International Airport",
    "city": "Dubai",
    "country": "UAE",
    "latitude": 25.2532,
    "longitude": 55.3657
  },
  {
    "code": "DOH",
    "name": "Hamad International Airport",
    "city": "Doha",
    "country": "Qatar",
    "latitude": 25.2611,
    "longitude": 51.5651
  },
  {
    "code": "IST",
    "name": "Istanbul Airport",
    "city": "Istanbul",
    "country": "Turkey",
    "latitude": 41.2753,
    "longitude": 28.7519
  },
  {
    "code": "SYD",
    "name": "Sydney Kingsford Smith Airport",
    "city": "Sydney",
    "country": "Australia",
    "latitude": -33.9399,
    "longitude": 151.1753
  },
  {
    "code": "MEL",
    "name": "Melbourne Airport",
    "city": "Melbourne",
    "country": "Australia",
    "latitude": -37.6733,
    "longitude": 144.8433
  },
  {
    "code": "YYZ",
    "name": "Toronto Pearson International Airport",
    "city": "Toronto",
    "country": "Canada",
    "latitude": 43.6777,
    "longitude": -79.6248
  },
  {
    "code": "YVR",
    "name": "Vancouver International Airport",
    "city": "Vancouver",
    "country": "Canada",
    "latitude": 49.1967,
    "longitude": -123.1815
  },
  {
    "code": "GRU",
    "name": "São Paulo/Guarulhos International Airport",
    "city": "São Paulo",
    "country": "Brazil",
    "latitude": -23.4356,
    "longitude": -46.4731
  },
  {
    "code": "EZE",
    "name": "Ministro Pistarini International Airport",
    "city": "Buenos Aires",
    "country": "Argentina",
    "latitude": -34.8222,
    "longitude": -58.5358
  },
  {
    "code": "JNB",
    "name": "O. R. Tambo International Airport",
    "city": "Johannesburg",
    "country": "South Africa",
    "latitude": -26.1337,
    "longitude": 28.2423
  },
  {
    "code": "CAI",
    "name": "Cairo International Airport",
    "city": "Cairo",
    "country": "Egypt",
    "latitude": 30.1127,
    "longitude": 31.4000
  }
]
